,City,Lat,Lng,Max Temp,Humidity,Cloudiness,Wind Speed,Country,Date
0,Albany,42.6001,-73.9662,66.69,73,86,7.83,US,1600376400
1,Villarrica,-25.75,-56.4333,79.32,57,44,1.25,PY,1600376400
2,Bambous Virieux,-20.3428,57.7575,70.74,72,47,13.4,MU,1600376400
3,Shimoda,34.6667,138.95,79.59,90,89,17.98,JP,1600376400
4,Barrow,71.2906,-156.7887,45.41,83,60,7.63,US,1600376400
5,Shiyan,32.6475,110.7781,60.37,60,0,4.0,CN,1600376400
6,San Patricio,19.2167,-104.7,87.91,66,25,6.49,MX,1600376400
7,Atuona,-9.8,-139.0333,77.47,78,33,22.64,PF,1600376400
8,Talaya,61.3833,152.75,36.66,89,28,3.27,RU,1600376400
9,Bredasdorp,-34.5322,20.0403,51.78,85,36,2.82,ZA,1600376400
10,Punta Arenas,-53.15,-70.9167,39.34,63,75,27.29,CL,1600376400
11,Bauchi,10.5,10.0,74.89,83,74,3.06,NG,1600376400
12,Jamestown,42.097,-79.2353,64.74,73,56,8.57,US,1600376400
13,Avarua,-21.2078,-159.775,71.42,73,88,21.0,CK,1600376400
14,Bluff,-46.6,168.3333,46.53,82,73,31.83,NZ,1600376400
15,Rikitea,-23.1203,-134.9692,71.89,82,98,22.64,PF,1600376400
16,Norman Wells,65.282,-126.8329,57.31,59,34,9.22,CA,1600376400
17,Jinxi,30.4323,116.2922,62.89,94,100,1.45,CN,1600376400
18,Makakilo City,21.3469,-158.0858,80.87,63,1,15.73,US,1600376400
19,Lorengau,-2.0226,147.2712,82.22,78,85,9.06,PG,1600376400
20,Māngrol,21.1167,70.1167,81.43,82,89,8.79,IN,1600376400
21,Tautira,-17.7333,-149.15,79.34,76,26,16.37,PF,1600376400
22,Busselton,-33.65,115.3333,47.26,66,8,10.74,AU,1600376400
23,Seoul,37.5683,126.9778,68.4,65,87,6.69,KR,1600376400
24,Nago,26.5881,127.9761,81.57,87,34,7.65,JP,1600376400
25,Arraial do Cabo,-22.9661,-42.0278,78.69,69,0,22.08,BR,1600376400
26,Broken Hill,-31.95,141.4333,65.37,64,87,12.08,AU,1600376400
27,Poum,-20.2333,164.0167,71.82,76,7,8.46,NC,1600376400
28,Tuktoyaktuk,69.4541,-133.0374,43.95,87,38,2.66,CA,1600376400
29,Saskylakh,71.9167,114.0833,46.96,81,1,9.01,RU,1600376400
30,Vaini,-21.2,-175.2,71.76,87,85,24.11,TO,1600376400
31,Yellowknife,62.456,-114.3525,47.82,62,38,13.29,CA,1600376400
32,Binabalian Ricor,16.4202,119.9279,83.01,76,40,18.01,PH,1600376400
33,Avera,33.194,-82.5271,75.9,92,90,9.44,US,1600376400
34,Goba,7.0167,39.9833,53.76,76,64,4.07,ET,1600376400
35,Ushuaia,-54.8,-68.3,34.81,73,68,9.62,AR,1600376400
36,Colares,38.7992,-9.4469,67.03,84,55,15.12,PT,1600376400
37,São Filipe,14.8961,-24.4956,81.23,82,63,6.91,CV,1600376400
38,Lüderitz,-26.6481,15.1594,59.58,68,0,12.19,NA,1600376400
39,Qaanaaq,77.484,-69.3632,20.64,84,30,9.84,GL,1600376400
40,Thompson,55.7435,-97.8558,46.92,48,41,8.43,CA,1600376400
41,Ancud,-41.8697,-73.8203,51.4,70,99,13.69,CL,1600376400
42,Upernavik,72.7868,-56.1549,34.3,86,100,4.56,GL,1600376400
43,Dikson,73.5069,80.5464,45.75,87,94,12.68,RU,1600376400
44,Okha,53.5739,142.9478,52.88,90,100,21.07,RU,1600376400
45,Alghero,40.5589,8.3181,73.08,82,43,3.51,IT,1600376400
46,Bathsheba,13.2167,-59.5167,84.97,63,60,5.17,BB,1600376400
47,Arrondissement de Marseille,43.3333,5.5,76.62,60,18,5.08,FR,1600376400
48,Butaritari,3.0707,172.7902,82.2,78,52,16.35,KI,1600376400
49,Hermanus,-34.4187,19.2345,55.22,84,28,3.38,ZA,1600376400
50,Diego de Almagro,-26.3667,-70.05,82.24,14,0,10.42,CL,1600376400
51,Nikolskoye,59.7035,30.7861,47.07,89,71,7.47,RU,1600376400
52,Hobart,-42.8794,147.3294,37.44,81,0,3.69,AU,1600376400
53,Touros,-5.1989,-35.4608,79.5,64,20,16.71,BR,1600376400
54,Mehamn,71.0357,27.8492,45.19,77,100,12.66,NO,1600376400
55,Ust-Nera,64.5667,143.2,36.14,82,0,1.25,RU,1600376400
56,Gunjur,13.2019,-16.7339,81.46,84,57,12.73,GM,1600376400
57,Sivaki,52.6333,126.75,47.41,96,100,11.52,RU,1600376400
58,Oodweyne,9.4092,45.064,82.96,42,69,12.3,SO,1600376400
59,Oranjemund,-28.55,16.4333,58.15,80,3,9.04,NA,1600376400
60,Penzance,50.1186,-5.5371,62.56,81,0,22.3,GB,1600376400
61,Cherskiy,68.75,161.3,35.13,95,100,4.43,RU,1600376400
62,Hilo,19.7297,-155.09,79.59,65,79,6.6,US,1600376400
63,Humaitá,-7.5061,-63.0208,98.6,31,76,3.27,BR,1600376400
64,Caravelas,-17.7125,-39.2481,76.19,62,3,6.67,BR,1600376400
65,Vodňany,49.1479,14.1751,52.93,79,39,4.21,CZ,1600376400
66,Kaduna,10.5222,7.4383,74.21,84,83,2.42,NG,1600376400
67,Pervomayskoye,43.919,46.7102,64.74,71,2,16.96,RU,1600376400
68,Deputatsky,69.3,139.9,39.72,90,99,11.34,RU,1600376400
69,Codrington,-38.2667,141.9667,49.06,86,100,9.6,AU,1600376400
70,Cape Town,-33.9258,18.4232,57.4,81,13,4.5,ZA,1600376400
71,Juba,4.8517,31.5825,76.32,71,37,2.89,SS,1600376400
72,Dalvik,65.9702,-18.5286,50.43,61,45,14.0,IS,1600376400
73,Rawson,-43.3002,-65.1023,59.14,32,47,36.51,AR,1600376400
74,Najrān,17.4924,44.1277,79.77,19,70,2.46,SA,1600376400
75,Russell,32.3502,-85.1999,76.84,81,86,8.77,US,1600376400
76,Tselinnoye,53.0833,85.6667,53.01,85,100,10.6,RU,1600376400
77,Faanui,-16.4833,-151.75,78.93,77,31,21.12,PF,1600376400
78,Flin Flon,54.7682,-101.865,54.0,40,10,5.41,CA,1600376400
79,Al Bardīyah,31.7561,25.0865,78.01,84,10,10.38,LY,1600376400
80,Mar del Plata,-38.0023,-57.5575,66.0,42,22,11.48,AR,1600376400
81,Srednekolymsk,67.45,153.6833,37.33,86,94,6.42,RU,1600376400
82,Anadyr,64.75,177.4833,43.65,86,59,12.75,RU,1600376400
83,Mataura,-46.1927,168.8643,41.95,78,59,11.88,NZ,1600376400
84,Linkuva,56.0856,23.9725,50.83,69,76,18.03,LT,1600376400
85,Porto-Novo,6.4965,2.6036,78.42,85,21,5.68,BJ,1600376400
86,Kaitangata,-46.2817,169.8464,44.69,64,38,17.4,NZ,1600376400
87,Sørland,67.667,12.6934,48.69,88,87,41.96,NO,1600376400
88,Adrar,20.5022,-10.0711,100.06,10,0,11.72,MR,1600376400
89,Bubaque,11.2833,-15.8333,80.71,80,54,12.24,GW,1600376400
90,Kapaa,22.0752,-159.319,80.47,67,30,11.39,US,1600376400
91,Pagouria,41.0291,25.3184,73.47,61,59,5.35,GR,1600376400
92,Puerto Ayora,-0.7393,-90.3518,70.38,71,58,11.12,EC,1600376400
93,Verkhnetulomskiy,68.6073,31.7962,38.62,95,69,3.98,RU,1600376400
94,Talnakh,69.4865,88.3972,51.26,78,99,8.93,RU,1600376400
95,Evensk,61.95,159.2333,42.39,70,22,8.61,RU,1600376400
96,La Ronge,55.1001,-105.2842,52.9,52,30,3.38,CA,1600376400
97,Guerrero Negro,27.9769,-114.0611,96.67,24,10,11.7,MX,1600376400
98,Bengkulu,-3.8004,102.2655,74.59,88,53,3.76,ID,1600376400
99,Vardø,70.3705,31.1107,46.72,72,87,19.04,NO,1600376400
100,Vallenar,-28.5708,-70.7581,84.04,19,0,6.06,CL,1600376400
101,Chokurdakh,70.6333,147.9167,42.89,97,100,9.75,RU,1600376400
102,Karlshamn,56.1706,14.8619,49.6,67,30,7.67,SE,1600376400
103,Teahupoo,-17.8333,-149.2667,77.13,81,22,17.81,PF,1600376400
104,Nizhniy Chir,48.3597,43.0865,60.69,39,1,13.18,RU,1600376400
105,Bosaso,11.2842,49.1816,92.34,50,1,7.76,SO,1600376400
106,Ashgabat,37.95,58.3833,66.51,33,38,6.76,TM,1600376400
107,Fairbanks,64.8378,-147.7164,59.59,56,87,11.25,US,1600376400
108,Khani,41.9563,42.9566,70.63,58,19,4.97,GE,1600376400
109,Haines Junction,60.7522,-137.5108,55.38,43,100,10.0,CA,1600376400
110,Asău,46.4333,26.4,67.59,66,44,9.17,RO,1600376400
111,Byron Bay,-28.65,153.6167,62.85,90,3,4.92,AU,1600376400
112,Oussouye,12.485,-16.5469,82.8,81,55,8.34,SN,1600376400
113,Sitka,57.0531,-135.33,63.39,59,31,3.83,US,1600376400
114,Bairiki Village,1.3292,172.9752,81.81,73,57,16.91,KI,1600376400
115,Umm Kaddadah,13.6017,26.6876,95.25,26,11,4.83,SD,1600376400
116,Houma,29.5958,-90.7195,86.88,63,87,8.01,US,1600376400
117,New Norfolk,-42.7826,147.0587,36.36,77,0,2.3,AU,1600376400
118,Tateyama,34.9833,139.8667,81.12,86,86,25.21,JP,1600376400
119,Srandakan,-7.9386,110.2506,73.44,85,76,3.15,ID,1600376400
120,Provideniya,64.3833,-173.3,44.96,87,84,8.93,RU,1600376400
121,George Town,5.4112,100.3354,79.09,90,59,2.19,MY,1600376400
122,Phuthaditjhaba,-28.5242,28.8158,52.83,38,1,3.49,ZA,1600376400
123,Tuatapere,-46.1333,167.6833,43.11,84,70,12.3,NZ,1600376400
124,Ketchikan,55.3422,-131.6461,69.04,73,3,3.6,US,1600376400
125,Sena Madureira,-9.0656,-68.6569,94.46,35,77,0.69,BR,1600376400
126,Cidreira,-30.1811,-50.2056,64.38,82,54,6.17,BR,1600376400
127,San Quintín,30.4833,-115.95,90.07,27,8,18.03,MX,1600376400
128,Ribeira Grande,38.5167,-28.7,70.72,77,59,16.26,PT,1600376400
129,Bethel,41.3712,-73.414,74.91,55,49,5.53,US,1600376400
130,Rzhaksa,52.1338,42.0264,62.2,34,61,18.19,RU,1600376400
131,Sindor,62.8629,51.8905,40.86,78,100,3.2,RU,1600376400
132,Zaozyornoye,45.1582,33.2787,71.44,66,20,5.84,UA,1600376400
133,Khatanga,71.9667,102.5,46.33,81,8,6.98,RU,1600376400
134,Saint-Philippe,-21.3585,55.7679,69.15,70,50,12.68,RE,1600376400
135,Tasiilaq,65.6145,-37.6368,34.9,76,3,3.29,GL,1600376400
136,Hithadhoo,-0.6,73.0833,82.45,79,79,11.48,MV,1600376400
137,Isangel,-19.55,169.2667,76.28,90,23,9.46,VU,1600376400
138,Salalah,17.0151,54.0924,80.19,82,49,4.5,OM,1600376400
139,Abbeville,50.1,1.8333,58.91,58,0,11.41,FR,1600376400
140,Port Augusta,-32.5,137.7667,70.97,48,96,18.54,AU,1600376400
141,Pudozh,61.8099,36.5345,44.78,91,100,15.97,RU,1600376400
142,Eureka,40.8021,-124.1637,69.37,84,45,8.34,US,1600376400
143,Pemangkat,1.1667,108.9667,77.76,87,93,9.28,ID,1600376400
144,Bonavista,48.6499,-53.1147,62.98,71,45,22.77,CA,1600376400
145,Port Alfred,-33.5906,26.891,59.04,72,16,6.58,ZA,1600376400
146,Tilichiki,60.4667,166.1,44.28,86,28,9.42,RU,1600376400
147,Port Lincoln,-34.7333,135.8667,59.56,83,86,17.43,AU,1600376400
148,Puerto del Rosario,28.5004,-13.8627,75.65,74,59,11.77,ES,1600376400
149,San Cristobal,7.7669,-72.225,84.33,51,49,3.98,VE,1600376400
150,Kabo,7.6994,18.629,73.83,95,87,0.76,CF,1600376400
151,Praia da Vitória,38.7333,-27.0667,69.33,72,54,4.88,PT,1600376400
152,Ballina,-28.8667,153.5667,61.56,90,3,5.23,AU,1600376400
153,Lodja,-3.4833,23.4333,74.79,82,53,2.62,CD,1600376400
154,Węgorzewo,54.2157,21.7372,51.19,67,72,11.56,PL,1600376400
155,Sovetskiy,61.3614,63.5842,46.04,78,88,9.31,RU,1600376400
156,Paragominas,-2.9667,-47.4833,94.23,37,44,5.91,BR,1600376400
157,Necochea,-38.5473,-58.7368,65.97,47,52,11.56,AR,1600376400
158,Kānkon,15.0167,74.0167,79.59,86,31,4.18,IN,1600376400
159,Nushki,29.5542,66.0215,66.4,24,0,1.39,PK,1600376400
160,Saint Paul Harbor,57.79,-152.4072,53.62,67,1,16.6,US,1600376400
161,Kiryat Gat,31.61,34.7642,76.53,85,0,3.31,IL,1600376400
162,Ixtapa,20.7,-105.2,86.85,70,69,5.17,MX,1600376400
163,Sittwe,20.15,92.9,82.35,81,92,2.33,MM,1600376400
164,Honiara,-9.4333,159.95,80.71,86,87,9.78,SB,1600376400
165,Tegul'det,57.3064,88.1667,53.64,93,99,6.76,RU,1600376400
166,Vostok,46.4856,135.8833,47.32,100,23,3.69,RU,1600376400
167,Broome,42.2506,-75.833,65.01,77,95,7.78,US,1600376400
168,Laguna,38.421,-121.4238,91.81,38,3,5.14,US,1600376400
169,Ponta Delgada,37.7333,-25.6667,68.52,68,22,9.33,PT,1600376400
170,Vila Franca do Campo,37.7167,-25.4333,67.33,69,16,6.78,PT,1600376400
171,Pankrushikha,53.8319,80.3406,50.47,65,70,7.31,RU,1600376400
172,Narsaq,60.9167,-46.05,43.47,61,87,6.64,GL,1600376400
173,East London,-33.0153,27.9116,61.14,74,1,7.63,ZA,1600376400
174,Neulengbach,48.1974,15.9022,58.06,77,68,3.36,AT,1600376400
175,Soc Trang,9.6033,105.98,76.75,96,87,13.78,VN,1600376400
176,Mossamedes,-15.1961,12.1522,62.49,77,0,7.45,AO,1600376400
177,Ottappālam,10.7667,76.3833,74.73,94,60,2.21,IN,1600376400
178,Fortuna,40.5982,-124.1573,73.99,71,9,8.08,US,1600376400
179,Atar,20.5169,-13.0499,104.18,11,0,11.83,MR,1600376400
180,Airai,-8.9266,125.4092,57.97,79,76,1.7,TL,1600376400
181,Stary Krym,45.0333,35.1,63.07,56,9,4.16,UA,1600376400
182,Kruisfontein,-34.0033,24.7314,52.23,82,0,3.67,ZA,1600376400
183,Dakar,14.6937,-17.4441,83.8,80,85,14.67,SN,1600376400
184,Voyvozh,62.892,54.9635,38.34,79,100,3.89,RU,1600376400
185,Hailey,43.5196,-114.3153,84.96,19,31,9.75,US,1600376400
186,Hambantota,6.1241,81.1185,79.68,87,78,17.22,LK,1600376400
187,Meulaboh,4.1363,96.1285,76.33,87,88,4.14,ID,1600376400
188,Serro,-18.6047,-43.3794,80.82,35,2,2.77,BR,1600376400
189,San Policarpo,12.1791,125.5072,78.4,80,100,1.99,PH,1600376400
190,Morondava,-20.2833,44.2833,74.23,87,3,7.94,MG,1600376400
191,Nueva Italia,-25.6167,-57.5,78.67,54,10,5.37,PY,1600376400
192,Sungai Raya,0.7,108.9,78.37,87,67,8.23,ID,1600376400
193,Kloulklubed,7.0419,134.2556,84.02,80,39,5.06,PW,1600376400
194,Bacolod City,10.6667,122.95,77.7,77,100,3.42,PH,1600376400
195,Shakawe,-18.3667,21.85,75.6,34,53,1.12,BW,1600376400
196,Medvedka,61.1629,46.387,41.67,93,100,12.66,RU,1600376400
197,Moree,-29.4667,149.85,60.98,64,28,9.46,AU,1600376400
198,Pevek,69.7008,170.3133,34.34,91,98,8.34,RU,1600376400
199,Inhambane,-23.865,35.3833,72.61,92,11,6.2,MZ,1600376400
200,Vaitape,-16.5167,-151.75,79.86,76,32,21.21,PF,1600376400
201,Berlevåg,70.8578,29.0864,45.41,69,100,18.23,NO,1600376400
202,Hong Kong,22.2855,114.1577,83.35,85,91,20.87,HK,1600376400
203,Oak Harbor,48.2932,-122.6432,60.51,91,86,7.7,US,1600376400
204,Vestmannaeyjar,63.4427,-20.2734,50.61,82,81,18.07,IS,1600376400
205,Torbay,47.6666,-52.7314,63.72,72,77,21.9,CA,1600376400
206,Wanning,18.8003,110.3967,82.6,87,100,16.11,CN,1600376400
207,Cabo San Lucas,22.8909,-109.9124,87.94,68,11,2.75,MX,1600376400
208,Clyde River,70.4692,-68.5914,38.53,68,76,2.39,CA,1600376400
209,Aykhal,66.0,111.5,45.48,70,4,5.19,RU,1600376400
210,Diffa,13.3154,12.6113,91.2,37,0,6.98,NE,1600376400
211,Esperance,-33.8667,121.9,55.09,91,78,13.22,AU,1600376400
212,Saldanha,-33.0117,17.9442,57.04,79,0,11.05,ZA,1600376400
213,Esim,4.8699,-2.2405,75.69,86,41,7.76,GH,1600376400
214,Moose Factory,51.2585,-80.6094,48.81,50,56,13.71,CA,1600376400
215,Beringovskiy,63.05,179.3167,43.63,88,99,9.71,RU,1600376400
216,Oruro,-17.9833,-67.15,57.29,27,69,6.33,BO,1600376400
217,Pimentel,-6.8367,-79.9342,64.56,75,67,14.99,PE,1600376400
218,Reserva,-24.6503,-50.8506,68.38,66,94,3.98,BR,1600376400
219,Saint George,37.1041,-113.5841,98.46,11,1,2.37,US,1600376400
220,Dunedin,-45.8742,170.5036,45.84,56,18,17.54,NZ,1600376400
221,Te Anau,-45.4167,167.7167,39.88,88,64,7.83,NZ,1600376400
222,Merrill,45.1805,-89.6835,60.73,41,20,6.6,US,1600376400
223,Geraldton,-28.7667,114.6,56.88,66,0,17.34,AU,1600376400
224,Klaksvík,62.2266,-6.589,53.94,95,100,18.75,FO,1600376400
225,Hornepayne,49.2138,-84.7705,48.51,46,0,10.33,CA,1600376400
226,Brae,60.3964,-1.353,55.4,96,84,18.66,GB,1600376400
227,Ouango,4.3133,22.5552,72.66,93,71,1.5,CF,1600376400
228,Mount Isa,-20.7333,139.5,70.48,62,0,15.66,AU,1600376400
229,Sisimiut,66.9395,-53.6735,38.95,73,70,8.39,GL,1600376400
230,Jipijapa,-1.3333,-80.5833,79.07,68,62,7.58,EC,1600376400
231,Roebourne,-20.7833,117.1333,72.82,30,1,18.86,AU,1600376400
232,Solnechnyy,50.7214,136.6319,48.58,92,98,8.05,RU,1600376400
233,Murray Bridge,-35.1167,139.2667,54.05,85,100,7.34,AU,1600376400
234,Kanata,45.3159,-75.8985,56.77,48,10,4.7,CA,1600376400
235,Praia,14.9215,-23.5087,81.91,78,30,3.33,CV,1600376400
236,Darhan,49.4867,105.9228,48.52,72,3,3.4,MN,1600376400
237,Coyhaique,-45.5752,-72.0662,41.97,77,60,12.19,CL,1600376400
238,Port Elizabeth,-33.918,25.5701,55.85,85,0,5.32,ZA,1600376400
239,Cordeiro,-22.0286,-42.3608,81.48,38,0,2.24,BR,1600376400
240,Yar-Sale,66.8333,70.8333,44.49,91,95,4.16,RU,1600376400
241,Mandi Bahauddin,32.5834,73.4843,84.88,39,0,3.58,PK,1600376400
242,Portland,45.5234,-122.6762,83.32,62,46,3.87,US,1600376400
243,Terråk,65.087,12.3715,48.42,75,87,13.02,NO,1600376400
244,Dergachi,51.2328,48.7659,53.96,48,100,8.84,RU,1600376400
245,Zhalantun,48.0,122.7167,52.38,92,100,7.72,CN,1600376400
246,Taltal,-25.4,-70.4833,65.21,48,21,5.28,CL,1600376400
247,Severo-Kuril'sk,50.6789,156.125,54.18,87,100,7.02,RU,1600376400
248,Homer,59.6425,-151.5483,53.69,74,60,15.82,US,1600376400
249,Lakota,5.8528,-5.6883,72.16,94,92,4.27,CI,1600376400
250,Paso de los Toros,-32.8167,-56.5167,69.08,54,0,6.2,UY,1600376400
251,Dandong,40.1292,124.3947,53.65,71,0,2.8,CN,1600376400
252,Palencia,42.4167,-4.5,69.75,59,97,9.69,ES,1600376400
253,Turiaçu,-1.6633,-45.3717,82.94,69,62,6.93,BR,1600376400
254,Grand-Santi,4.25,-54.3833,90.16,54,63,0.96,GF,1600376400
255,Castro,-24.7911,-50.0119,67.53,68,91,8.43,BR,1600376400
256,Mahébourg,-20.4081,57.7,70.86,73,48,13.49,MU,1600376400
257,Jalu,29.0331,21.5482,83.59,47,0,15.3,LY,1600376400
258,Liverpool,53.4106,-2.9779,59.65,66,0,8.52,GB,1600376400
259,Kargopol',61.5071,38.9456,44.96,94,100,14.81,RU,1600376400
260,Bobon,12.5246,124.5636,76.51,87,100,2.82,PH,1600376400
261,Ahipara,-35.1667,173.1667,59.79,81,89,16.62,NZ,1600376400
262,Coahuayana Viejo,18.7333,-103.6833,86.2,74,61,6.49,MX,1600376400
263,Rome,43.2128,-75.4557,59.27,85,95,3.67,US,1600376400
264,Pacifica,37.6138,-122.4869,67.5,81,62,10.58,US,1600376400
265,Hualmay,-11.0964,-77.6139,66.38,66,25,7.45,PE,1600376400
266,Aragarças,-15.8975,-52.2508,97.02,17,82,4.07,BR,1600376400
267,Dingle,10.9995,122.6711,75.34,91,100,2.46,PH,1600376400
268,Xai-Xai,-25.0519,33.6442,70.32,89,71,6.69,MZ,1600376400
269,Kavieng,-2.5744,150.7967,82.53,77,92,11.48,PG,1600376400
270,Jiexiu,37.0244,111.9125,61.38,33,0,6.76,CN,1600376400
271,Tukan,53.8409,57.4552,38.5,96,84,2.59,RU,1600376400
272,Kavaratti,10.5669,72.642,82.0,80,81,20.58,IN,1600376400
273,Vao,-22.6667,167.4833,71.11,85,1,8.57,NC,1600376400
274,Constitución,-35.3333,-72.4167,61.5,67,2,17.69,CL,1600376400
275,Alamogordo,32.8995,-105.9603,82.99,25,5,6.73,US,1600376400
276,Chegdomyn,51.1167,133.0167,48.65,93,82,0.38,RU,1600376400
277,Kumul,42.8,93.45,67.62,23,0,3.94,CN,1600376400
278,Kuminskiy,58.6667,66.5667,47.25,90,98,9.66,RU,1600376400
279,Channel-Port aux Basques,47.5702,-59.1367,60.6,80,45,16.15,CA,1600376400
280,Ajdabiya,30.7554,20.2263,75.7,78,0,6.58,LY,1600376400
281,Urambo,-5.0667,32.05,76.5,28,51,5.68,TZ,1600376400
282,Kholodnyy,62.7167,147.95,35.08,90,28,3.22,RU,1600376400
283,Savalou,7.9281,1.9756,74.66,93,17,4.21,BJ,1600376400
284,Malaṅgawā,26.8568,85.5581,78.22,91,96,5.35,NP,1600376400
285,Kayes,14.0,-11.0,85.51,74,80,7.25,ML,1600376400
286,Barlinek,52.9946,15.2186,50.81,73,31,3.11,PL,1600376400
287,Halmstad,56.6745,12.8568,49.06,69,26,3.94,SE,1600376400
288,Lebu,-37.6167,-73.65,53.38,78,80,12.71,CL,1600376400
289,Ilulissat,69.2167,-51.1,33.85,82,77,5.06,GL,1600376400
290,Bucerías,20.75,-105.3333,87.04,70,69,8.25,MX,1600376400
291,Yiyang,28.5892,112.3283,61.72,94,100,4.7,CN,1600376400
292,Coquimbo,-29.9533,-71.3436,64.8,69,1,5.01,CL,1600376400
293,Ostrovnoy,68.0531,39.5131,42.24,85,1,7.45,RU,1600376400
294,Marovoay,-16.1,46.6333,72.63,72,11,3.24,MG,1600376400
295,Presidencia Roque Sáenz Peña,-26.7852,-60.4388,81.88,28,0,3.31,AR,1600376400
296,Bizhbulyak,53.6967,54.2642,41.23,87,35,5.53,RU,1600376400
297,Huarmey,-10.0681,-78.1522,66.99,66,27,7.83,PE,1600376400
298,Ijuí,-28.3878,-53.9147,73.08,77,21,4.97,BR,1600376400
299,Forbes,-33.3833,148.0167,57.99,93,82,9.86,AU,1600376400
300,Salinópolis,-0.6136,-47.3561,82.74,73,30,14.32,BR,1600376400
301,Nemuro,43.3236,145.575,67.87,97,100,9.42,JP,1600376400
302,Carnarvon,-24.8667,113.6333,65.28,50,0,15.88,AU,1600376400
303,Chui,-33.6971,-53.4616,65.41,65,2,6.02,UY,1600376400
304,Arlit,18.7369,7.3853,85.35,53,98,19.98,NE,1600376400
305,Varhaug,58.6147,5.6457,51.85,83,19,7.29,NO,1600376400
306,Bārmer,25.75,71.3833,88.32,62,39,15.08,IN,1600376400
307,Santa Cruz Cabrália,-16.2781,-39.0247,76.06,68,10,8.41,BR,1600376400
308,Maun,-19.9833,23.4167,79.03,36,52,7.0,BW,1600376400
309,Yancheng,33.3856,120.1253,61.79,94,95,7.02,CN,1600376400
310,Amahai,-3.3333,128.9167,76.8,82,91,2.06,ID,1600376400
311,Bariloche,-41.1456,-71.3082,45.21,62,37,20.42,AR,1600376400
312,Taoudenni,22.6783,-3.9836,97.63,13,0,12.46,ML,1600376400
313,Samaná,19.2056,-69.3369,86.0,75,28,7.47,DO,1600376400
314,Saint-Cyr-sur-Loire,47.4,0.6667,75.43,45,0,16.78,FR,1600376400
315,Madera,37.1666,-119.8343,93.88,26,24,5.86,US,1600376400
316,Redlands,34.0556,-117.1825,97.88,9,72,5.99,US,1600376400
317,Lompoc,34.6391,-120.4579,79.07,48,39,9.08,US,1600376400
318,Kopavogur,64.1123,-21.913,49.44,82,82,16.15,IS,1600376400
319,São Félix do Xingu,-6.6447,-51.995,96.89,26,46,3.11,BR,1600376400
320,Ukiah,39.1502,-123.2078,86.58,43,1,9.55,US,1600376400
321,Kofelē,7.0667,38.7833,52.47,93,70,5.37,ET,1600376400
322,Gornyye Klyuchi,45.25,133.5,53.96,94,32,3.85,RU,1600376400
323,Dwārka,22.2394,68.9678,82.89,82,78,11.39,IN,1600376400
324,Abhā,18.2164,42.5053,71.58,50,46,7.7,SA,1600376400
325,Mae Hong Son,19.3003,97.9685,75.78,87,98,0.22,TH,1600376400
326,Guarapari,-20.6667,-40.4975,77.52,67,0,15.84,BR,1600376400
327,Khomutovka,51.9207,34.5619,50.95,89,81,9.31,RU,1600376400
328,Fukuechō,32.6881,128.8419,72.91,91,100,20.74,JP,1600376400
329,Nanortalik,60.1432,-45.2371,40.95,76,91,17.83,GL,1600376400
330,Bowen,-20.0167,148.2333,71.89,79,91,18.39,AU,1600376400
331,Waterford,42.7023,-83.4027,63.95,46,10,11.54,US,1600376400
332,Amuntai,-2.4177,115.2494,74.97,88,68,1.41,ID,1600376400
333,Mayor Pablo Lagerenza,-19.9309,-60.7718,86.72,37,94,7.16,PY,1600376400
334,Santa Inês,-3.6667,-45.38,88.0,55,51,4.25,BR,1600376400
335,Tālīkota,16.4833,76.3167,75.36,86,95,16.04,IN,1600376400
336,Hay River,60.8156,-115.7999,53.56,59,87,10.74,CA,1600376400
337,Whitehorse,60.7161,-135.0538,59.76,43,86,12.1,CA,1600376400
338,Tran,42.8353,22.6517,66.31,45,29,0.72,BG,1600376400
339,Acapulco de Juárez,16.8634,-99.8901,84.79,74,90,4.16,MX,1600376400
340,Athens,37.9795,23.7162,73.85,72,43,6.49,GR,1600376400
341,Tiksi,71.6872,128.8694,46.31,81,100,16.06,RU,1600376400
342,Vrangel',42.7297,133.0839,59.04,90,80,5.7,RU,1600376400
343,Kaeo,-35.1,173.7833,59.43,39,74,15.1,NZ,1600376400
344,Sola,-13.8833,167.55,81.34,82,84,24.16,VU,1600376400
345,San Julián,21.0167,-102.1667,71.64,65,59,3.0,MX,1600376400
346,Cayenne,4.9333,-52.3333,85.86,70,17,13.35,GF,1600376400
347,Kapoeta,4.7717,33.5903,82.83,41,73,1.88,SS,1600376400
348,Ngunguru,-35.6167,174.5,59.27,38,22,15.08,NZ,1600376400
349,Buala,-8.145,159.5921,80.55,82,100,11.05,SB,1600376400
350,Dabat,12.9842,37.765,54.12,91,42,3.33,ET,1600376400
351,Tigil',57.8,158.6667,42.94,84,0,2.98,RU,1600376400
352,Kattivākkam,13.2167,80.3167,82.54,81,59,15.26,IN,1600376400
353,Barra Patuca,15.8,-84.2833,88.14,65,3,13.42,HN,1600376400
354,Pleszew,51.8964,17.7855,53.85,64,7,7.63,PL,1600376400
355,Chicama,-7.8447,-79.1469,71.44,56,21,9.13,PE,1600376400
356,Nueva Loja,0.0847,-76.8828,87.24,66,97,0.81,EC,1600376400
357,Province of Brindisi,40.5833,17.6667,77.09,58,58,20.24,IT,1600376400
358,Sinjai,-5.1241,120.253,76.05,85,99,4.79,ID,1600376400
359,Severnyy,50.677,36.5532,65.39,60,55,14.34,RU,1600376400
360,Jacmel,18.2342,-72.5347,88.81,56,12,4.14,HT,1600376400
361,Qazanbulaq,40.6192,46.6519,68.07,68,51,3.31,AZ,1600376400
362,Margate,51.3813,1.3862,61.72,67,31,21.7,GB,1600376400
363,Gongzhuling,43.5008,124.8198,49.48,91,29,11.72,CN,1600376400
364,Saint Lawrence,36.0553,14.204,78.49,82,0,21.74,MT,1600376400
365,Rabat,33.9911,-6.8401,76.62,58,87,12.19,MA,1600376400
366,Acajutla,13.5928,-89.8275,84.88,67,57,6.46,SV,1600376400
367,Leningradskiy,69.3833,178.4167,33.49,94,100,15.7,RU,1600376400
368,Alihe,50.5667,123.7167,49.75,93,100,4.34,CN,1600376400
369,Oriximiná,-1.7656,-55.8661,95.85,36,56,5.23,BR,1600376400
370,Coria,39.9879,-6.5377,71.85,62,91,2.17,ES,1600376400
371,Kayseri Province,38.737,35.4968,61.72,49,0,1.83,TR,1600376400
372,Teya,60.3778,92.6267,50.9,89,95,3.98,RU,1600376400
373,Okhotsk,59.3833,143.3,46.6,64,0,6.04,RU,1600376400
374,Souillac,-20.5167,57.5167,70.5,74,42,12.08,MU,1600376400
375,Lubao,14.9167,120.55,77.23,89,87,0.65,PH,1600376400
376,Albury,-36.0833,146.9167,55.0,89,92,3.53,AU,1600376400
377,Padang,-0.9492,100.3543,76.91,77,99,2.71,ID,1600376400
378,Huaibei,33.9744,116.7917,60.44,91,5,6.11,CN,1600376400
379,Sampang,-7.1872,113.2394,79.65,79,41,10.33,ID,1600376400
380,Swellendam,-34.0226,20.4417,52.16,84,3,1.9,ZA,1600376400
381,Monaghan,54.25,-6.9667,55.2,88,44,1.05,IE,1600376400
382,Natal,-5.795,-35.2094,79.97,67,10,13.13,BR,1600376400
383,Hofn,64.2539,-15.2082,51.08,76,26,9.31,IS,1600376400
384,Banda Aceh,5.5577,95.3222,81.46,70,100,12.75,ID,1600376400
385,Lobito,-12.3481,13.5456,70.72,84,85,5.1,AO,1600376400
386,Miandrivazo,-19.5167,45.4667,75.65,53,67,3.15,MG,1600376400
387,Sur,22.5667,59.5289,81.41,63,2,5.55,OM,1600376400
388,Husavik,66.0449,-17.3389,50.34,59,25,12.62,IS,1600376400
389,Richards Bay,-28.783,32.0377,66.02,73,47,4.85,ZA,1600376400
390,Ivanovka,42.8878,75.085,47.71,85,87,5.48,KG,1600376400
391,Ozernovskiy,51.5,156.5167,52.72,94,100,9.17,RU,1600376400
392,Düsseldorf,51.2217,6.7762,61.09,50,36,10.13,DE,1600376400
393,Alofi,-19.0595,-169.9187,75.61,92,84,24.07,NU,1600376400
394,Metro,-5.1131,105.3067,73.76,89,49,4.16,ID,1600376400
395,Cuencamé de Ceniceros,24.8711,-103.6964,78.06,44,13,16.37,MX,1600376400
396,Bainbridge Island,47.6262,-122.5212,75.42,71,56,6.42,US,1600376400
397,Iqaluit,63.7506,-68.5145,39.43,70,73,3.02,CA,1600376400
398,Cristóbal Obregón,16.35,-93.5333,82.11,71,85,2.82,MX,1600376400
399,Jurm,36.8648,70.8342,50.95,48,0,1.03,AF,1600376400
400,Palmer,42.1584,-72.3287,74.52,51,87,4.7,US,1600376400
401,Nísia Floresta,-6.0911,-35.2086,78.89,69,10,11.03,BR,1600376400
402,Le Port,-20.9373,55.2919,69.37,69,60,5.23,RE,1600376400
403,Aksarka,66.5606,67.7975,46.54,87,100,8.08,RU,1600376400
404,Bayir,37.2687,28.2167,74.41,55,0,0.47,TR,1600376400
405,Sarangani,5.4033,125.4636,81.93,72,50,3.74,PH,1600376400
406,Samarai,-10.6167,150.6667,79.07,86,100,17.16,PG,1600376400
407,Skjervøy,70.0311,20.9714,47.08,78,100,15.57,NO,1600376400
408,Niquero,20.0431,-77.5828,87.13,64,6,3.53,CU,1600376400
409,Tuy Hoa,13.0833,109.3,73.85,89,100,16.24,VN,1600376400
410,Waingapu,-9.6567,120.2641,73.65,83,72,4.94,ID,1600376400
411,Warmbad,-28.45,18.7333,65.32,23,0,8.3,NA,1600376400
412,Monrovia,6.3005,-10.7969,79.7,83,87,11.48,LR,1600376400
413,Opunake,-39.4556,173.8583,53.76,87,100,21.99,NZ,1600376400
414,Kiama,-34.6833,150.8667,57.31,86,100,3.94,AU,1600376400
415,Flinders,-34.5833,150.8552,57.29,82,99,3.91,AU,1600376400
416,Dzilam González,21.2833,-88.9333,95.07,44,89,4.63,MX,1600376400
417,Mariana,-20.3778,-43.4161,82.76,36,22,3.24,BR,1600376400
418,Ponta do Sol,32.6667,-17.1,70.56,67,37,16.49,PT,1600376400
419,Port Hardy,50.6996,-127.4199,63.75,85,74,5.48,CA,1600376400
420,Creel,27.75,-107.6333,67.42,49,0,15.84,MX,1600376400
421,San Martín,-33.081,-68.4681,85.39,14,0,8.32,AR,1600376400
422,Muisne,0.6,-80.0333,75.9,82,90,12.55,EC,1600376400
423,Atasū,48.6814,71.6433,51.51,75,92,17.67,KZ,1600376400
424,Khor,47.8861,134.9464,52.74,95,21,3.87,RU,1600376400
425,Linfen,36.0889,111.5189,66.51,31,0,2.55,CN,1600376400
426,Aksu,41.1231,80.2644,67.77,26,2,5.23,CN,1600376400
427,Puerto Carreño,6.189,-67.4859,90.41,54,25,3.49,CO,1600376400
428,Noumea,-22.2763,166.4572,71.19,83,8,6.55,NC,1600376400
429,Ekhabi,53.5102,142.9671,52.74,92,100,20.4,RU,1600376400
430,Seymchan,62.8833,152.4333,38.46,86,43,1.7,RU,1600376400
431,Sidrolândia,-20.9319,-54.9614,88.36,34,53,13.18,BR,1600376400
432,Fuyu,45.1833,124.8167,50.2,94,69,6.06,CN,1600376400
433,Faya,18.3851,42.4509,71.6,48,55,9.04,SA,1600376400
434,Itoman,26.1247,127.6694,82.09,86,86,9.1,JP,1600376400
435,Lagoa,39.05,-27.9833,69.17,73,52,14.29,PT,1600376400
436,Rio Grande,-32.035,-52.0986,63.01,80,0,5.5,BR,1600376400
437,Samur,41.8253,48.486,68.22,79,39,5.59,RU,1600376400
438,Biak,-0.9131,122.8766,75.96,70,39,4.92,ID,1600376400
439,Kahului,20.8947,-156.47,81.1,55,32,9.82,US,1600376400
440,Zhigansk,66.7697,123.3711,37.62,79,4,0.6,RU,1600376400
441,Mizdah,31.4451,12.9801,76.19,44,0,5.84,LY,1600376400
442,Porto Real,-22.4197,-44.2903,86.43,36,31,6.08,BR,1600376400
443,Magán,39.9683,-3.931,75.56,53,99,10.76,ES,1600376400
444,Kismayo,-0.3582,42.5454,77.86,83,4,12.1,SO,1600376400
445,Marzuq,14.4,46.4667,81.72,49,58,1.16,YE,1600376400
446,Tarakan,3.3,117.6333,78.96,83,84,6.51,ID,1600376400
447,Zhangye,38.9342,100.4517,58.35,33,0,3.51,CN,1600376400
448,Arman',59.7,150.1667,43.3,68,0,7.18,RU,1600376400
449,Vitim,59.4511,112.5578,42.28,89,0,3.8,RU,1600376400
450,Bargi,22.9833,79.8667,78.69,82,98,1.59,IN,1600376400
451,Naze,28.3667,129.4833,80.55,93,79,10.65,JP,1600376400
452,Bud,39.447,-86.1758,75.88,61,8,15.17,US,1600376400
453,Fort Frances,48.5999,-93.4003,51.31,41,46,2.91,CA,1600376400
454,Nanticoke,41.2054,-76.0049,73.15,62,100,4.61,US,1600376400
455,Benito Juarez,19.385,-99.165,73.81,48,68,7.9,MX,1600376400
456,Olafsvik,64.8945,-23.7142,48.65,81,65,20.56,IS,1600376400
457,North Bend,43.4065,-124.2243,68.38,82,55,5.59,US,1600376400
458,Katsuura,35.1333,140.3,80.73,85,81,23.8,JP,1600376400
459,Baghmara,23.795,86.2085,81.84,79,100,1.14,IN,1600376400
460,Nizhniy Kuranakh,58.8353,125.4869,38.12,85,43,2.17,RU,1600376400
461,Tingi,-11.3,35.0333,70.0,43,0,7.9,TZ,1600376400
462,Elko,41.0002,-115.5012,87.67,15,1,12.35,US,1600376400
463,Pushchino,54.8339,37.6264,53.49,87,87,12.19,RU,1600376400
464,Labuhan,-6.8844,112.2051,77.45,80,69,6.78,ID,1600376400
465,Wana,32.2989,69.5725,76.03,19,0,5.93,PK,1600376400
466,Haapiti,-17.5667,-149.8667,80.83,73,12,18.81,PF,1600376400
467,Tual,-5.6667,132.75,79.63,85,94,11.9,ID,1600376400
468,Ojinaga,29.5667,-104.4167,86.45,45,75,15.99,MX,1600376400
469,Gisors,49.2818,1.7801,61.39,43,0,14.14,FR,1600376400
470,Umluj,25.0213,37.2685,87.85,52,0,6.38,SA,1600376400
471,Zheleznodorozhnyy,55.7503,38.0042,54.45,82,87,12.21,RU,1600376400
472,Los Llanos de Aridane,28.6585,-17.9182,69.55,75,59,14.0,ES,1600376400
473,Jega,12.2175,4.3792,80.33,76,95,6.15,NG,1600376400
474,Pangnirtung,66.1451,-65.7125,39.76,63,90,4.63,CA,1600376400
475,Saint-Pierre,-21.3393,55.4781,69.64,67,16,4.85,RE,1600376400
476,Grindavik,63.8424,-22.4338,49.87,80,76,21.39,IS,1600376400
477,Changqing,36.5575,116.7272,64.49,43,0,6.2,CN,1600376400
478,Bac Lieu,9.285,105.7244,77.58,90,100,16.49,VN,1600376400
479,Erenhot,43.6475,111.9767,53.78,43,9,6.8,CN,1600376400
480,Virginia Beach,36.8529,-75.978,71.55,86,100,12.1,US,1600376400
481,Henties Bay,-22.116,14.2845,54.19,89,0,2.35,NA,1600376400
482,Pinyug,60.251,47.7842,41.5,95,100,10.13,RU,1600376400
483,Jieshi,22.8134,115.8257,81.68,87,76,14.16,CN,1600376400
484,Xingyi,24.1877,102.817,58.19,95,100,3.42,CN,1600376400
485,Golden,39.7555,-105.2211,83.37,13,46,7.07,US,1600376400
486,Mount Gambier,-37.8333,140.7667,50.11,82,95,10.42,AU,1600376400
487,Tymovskoye,50.8456,142.655,59.65,94,88,4.14,RU,1600376400
488,Rūdbār,30.15,62.6,72.61,27,0,8.21,AF,1600376400
489,Nipawin,53.3668,-104.0009,55.11,52,22,4.07,CA,1600376400
490,Jever,53.5833,7.9,52.09,73,52,10.27,DE,1600376400
491,Rāzole,16.4833,81.8333,79.41,93,2,3.85,IN,1600376400
492,Pangkalanbuun,-2.6833,111.6167,74.61,93,61,1.21,ID,1600376400
493,Kayerkan,69.3497,87.7602,50.61,79,98,7.78,RU,1600376400
494,Murgab,37.4966,61.9714,59.88,43,10,8.34,TM,1600376400
495,Māgadi,12.9667,77.2333,70.12,92,68,9.15,IN,1600376400
496,Huancabamba,-5.2386,-79.4506,66.99,64,60,3.51,PE,1600376400
497,Harper,4.375,-7.7169,75.2,87,99,11.86,LR,1600376400
498,Belyy Yar,53.6039,91.3903,56.03,77,93,7.02,RU,1600376400
499,Jacareacanga,-6.2222,-57.7528,94.68,46,46,2.24,BR,1600376400
500,Mossendjo,-2.9506,12.7261,73.13,82,74,2.06,CG,1600376400
501,Mulanje,-16.0316,35.5,77.43,39,13,9.26,MW,1600376400
502,Muli,2.9167,73.5667,82.89,77,100,11.25,MV,1600376400
503,Longyearbyen,78.2186,15.6401,35.71,91,87,3.62,SJ,1600376400
504,Mandalgovi,45.7625,106.2708,44.35,61,0,0.36,MN,1600376400
505,Mhlume,-26.0333,31.85,61.56,68,18,2.42,SZ,1600376400
506,Ginir,7.1333,40.7,64.56,67,37,3.6,ET,1600376400
507,Puerto Madryn,-42.7692,-65.0385,60.64,30,24,39.64,AR,1600376400
508,Betioky,-23.7167,44.3833,74.08,38,1,7.45,MG,1600376400
509,Mokhsogollokh,61.4681,128.9203,37.9,81,8,1.81,RU,1600376400
510,Alamosa,37.4695,-105.87,74.12,27,1,4.41,US,1600376400
511,Mayo,38.8876,-76.5119,71.51,84,49,8.23,US,1600376400
512,Qaqortoq,60.7167,-46.0333,43.59,61,87,11.54,GL,1600376400
513,Nyurba,63.2842,118.3319,39.24,90,0,3.2,RU,1600376400
514,Payo,-3.7508,103.6372,72.63,92,59,2.37,ID,1600376400
515,Rocha,-34.4833,-54.3333,66.16,61,0,7.78,UY,1600376400
516,Örnsköldsvik,63.2909,18.7153,45.52,76,96,2.98,SE,1600376400
517,Kichera,55.9375,110.0997,44.94,75,20,2.8,RU,1600376400
518,Kichmengskiy Gorodok,59.9816,45.7854,46.98,94,100,9.37,RU,1600376400
519,Sterling,39.0062,-77.4286,70.2,77,95,6.15,US,1600376400
520,Departamento de Maldonado,-34.6667,-54.9167,68.54,54,0,10.6,UY,1600376400
521,Bereda,43.2686,-7.5406,64.54,96,79,0.74,ES,1600376400
522,Baijiantan,45.6333,85.1833,68.76,35,85,36.01,CN,1600376400
523,Mitsamiouli,-11.3847,43.2844,76.64,78,23,9.19,KM,1600376400
524,Hamilton,39.1834,-84.5333,78.55,47,1,10.94,US,1600376400
525,Lālmohan,22.3384,90.7419,83.82,84,97,5.06,BD,1600376400
526,Isiro,2.7739,27.616,69.28,93,51,1.03,CD,1600376400
527,Ust-Kuyga,70.0167,135.6,45.93,82,100,5.17,RU,1600376400
528,Waipawa,-41.4122,175.5153,44.83,96,92,13.89,NZ,1600376400
529,Taormina,37.8536,15.2885,75.69,67,35,6.53,IT,1600376400
530,Pisco,-13.7,-76.2167,65.95,77,24,5.95,PE,1600376400
531,Dongsheng,39.8161,109.9776,52.48,44,0,3.53,CN,1600376400
